[
    {
        "county":"Los Angeles",
        "county_full":"Los Angeles County",
        "county_fips":6037,
        "state_name":"California",
        "lat":34.3219,
        "lng":-118.2247,
        "population":9808667
    },
    {
        "county":"Cook",
        "county_full":"Cook County",
        "county_fips":17031,
        "state_name":"Illinois",
        "lat":41.8401,
        "lng":-87.8168,
        "population":5182090
    },
    {
        "county":"Harris",
        "county_full":"Harris County",
        "county_fips":48201,
        "state_name":"Texas",
        "lat":29.8578,
        "lng":-95.3938,
        "population":4838303
    },
    {
        "county":"Maricopa",
        "county_full":"Maricopa County",
        "county_fips":4013,
        "state_name":"Arizona",
        "lat":33.349,
        "lng":-112.4915,
        "population":4559748
    },
    {
        "county":"San Diego",
        "county_full":"San Diego County",
        "county_fips":6073,
        "state_name":"California",
        "lat":33.0343,
        "lng":-116.735,
        "population":3288774
    },
    {
        "county":"Orange",
        "county_full":"Orange County",
        "county_fips":6059,
        "state_name":"California",
        "lat":33.7031,
        "lng":-117.7609,
        "population":3165820
    },
    {
        "county":"Miami-Dade",
        "county_full":"Miami-Dade County",
        "county_fips":12086,
        "state_name":"Florida",
        "lat":25.615,
        "lng":-80.5624,
        "population":2738356
    },
    {
        "county":"Kings",
        "county_full":"Kings County",
        "county_fips":36047,
        "state_name":"New York",
        "lat":40.6413,
        "lng":-73.9383,
        "population":2631580
    },
    {
        "county":"Dallas",
        "county_full":"Dallas County",
        "county_fips":48113,
        "state_name":"Texas",
        "lat":32.7666,
        "lng":-96.7778,
        "population":2621179
    },
    {
        "county":"Riverside",
        "county_full":"Riverside County",
        "county_fips":6065,
        "state_name":"California",
        "lat":33.7437,
        "lng":-115.9938,
        "population":2478600
    },
    {
        "county":"Clark",
        "county_full":"Clark County",
        "county_fips":32003,
        "state_name":"Nevada",
        "lat":36.2152,
        "lng":-115.0135,
        "population":2329548
    },
    {
        "county":"Queens",
        "county_full":"Queens County",
        "county_fips":36081,
        "state_name":"New York",
        "lat":40.7035,
        "lng":-73.8196,
        "population":2323052
    },
    {
        "county":"King",
        "county_full":"King County",
        "county_fips":53033,
        "state_name":"Washington",
        "lat":47.4903,
        "lng":-121.8052,
        "population":2287171
    },
    {
        "county":"San Bernardino",
        "county_full":"San Bernardino County",
        "county_fips":6071,
        "state_name":"California",
        "lat":34.8414,
        "lng":-116.1785,
        "population":2197104
    },
    {
        "county":"Tarrant",
        "county_full":"Tarrant County",
        "county_fips":48439,
        "state_name":"Texas",
        "lat":32.7719,
        "lng":-97.2911,
        "population":2167390
    },
    {
        "county":"Bexar",
        "county_full":"Bexar County",
        "county_fips":48029,
        "state_name":"Texas",
        "lat":29.4489,
        "lng":-98.52,
        "population":2067341
    },
    {
        "county":"Broward",
        "county_full":"Broward County",
        "county_fips":12011,
        "state_name":"Florida",
        "lat":26.1523,
        "lng":-80.4871,
        "population":1977129
    },
    {
        "county":"Santa Clara",
        "county_full":"Santa Clara County",
        "county_fips":6085,
        "state_name":"California",
        "lat":37.2318,
        "lng":-121.6951,
        "population":1902047
    },
    {
        "county":"Wayne",
        "county_full":"Wayne County",
        "county_fips":26163,
        "state_name":"Michigan",
        "lat":42.2822,
        "lng":-83.283,
        "population":1772259
    },
    {
        "county":"Alameda",
        "county_full":"Alameda County",
        "county_fips":6001,
        "state_name":"California",
        "lat":37.6469,
        "lng":-121.8887,
        "population":1649473
    },
    {
        "county":"Middlesex",
        "county_full":"Middlesex County",
        "county_fips":25017,
        "state_name":"Massachusetts",
        "lat":42.4856,
        "lng":-71.3918,
        "population":1638365
    },
    {
        "county":"New York",
        "county_full":"New York County",
        "county_fips":36061,
        "state_name":"New York",
        "lat":40.7792,
        "lng":-73.9668,
        "population":1629477
    },
    {
        "county":"Sacramento",
        "county_full":"Sacramento County",
        "county_fips":6067,
        "state_name":"California",
        "lat":38.4493,
        "lng":-121.3443,
        "population":1594006
    },
    {
        "county":"Philadelphia",
        "county_full":"Philadelphia County",
        "county_fips":42101,
        "state_name":"Pennsylvania",
        "lat":40.0076,
        "lng":-75.134,
        "population":1579706
    },
    {
        "county":"Palm Beach",
        "county_full":"Palm Beach County",
        "county_fips":12099,
        "state_name":"Florida",
        "lat":26.6476,
        "lng":-80.4655,
        "population":1533806
    },
    {
        "county":"Suffolk",
        "county_full":"Suffolk County",
        "county_fips":36103,
        "state_name":"New York",
        "lat":40.8681,
        "lng":-72.8456,
        "population":1530146
    },
    {
        "county":"Hillsborough",
        "county_full":"Hillsborough County",
        "county_fips":12057,
        "state_name":"Florida",
        "lat":27.9292,
        "lng":-82.3088,
        "population":1522748
    },
    {
        "county":"Orange",
        "county_full":"Orange County",
        "county_fips":12095,
        "state_name":"Florida",
        "lat":28.5144,
        "lng":-81.3235,
        "population":1471937
    },
    {
        "county":"Bronx",
        "county_full":"Bronx County",
        "county_fips":36005,
        "state_name":"New York",
        "lat":40.8501,
        "lng":-73.8671,
        "population":1404779
    },
    {
        "county":"Nassau",
        "county_full":"Nassau County",
        "county_fips":36059,
        "state_name":"New York",
        "lat":40.7326,
        "lng":-73.5862,
        "population":1389591
    },
    {
        "county":"Franklin",
        "county_full":"Franklin County",
        "county_fips":39049,
        "state_name":"Ohio",
        "lat":39.9695,
        "lng":-83.0093,
        "population":1333048
    },
    {
        "county":"Travis",
        "county_full":"Travis County",
        "county_fips":48453,
        "state_name":"Texas",
        "lat":30.3344,
        "lng":-97.782,
        "population":1330015
    },
    {
        "county":"Oakland",
        "county_full":"Oakland County",
        "county_fips":26125,
        "state_name":"Michigan",
        "lat":42.6604,
        "lng":-83.3858,
        "population":1279825
    },
    {
        "county":"Hennepin",
        "county_full":"Hennepin County",
        "county_fips":27053,
        "state_name":"Minnesota",
        "lat":45.0046,
        "lng":-93.477,
        "population":1269496
    },
    {
        "county":"Cuyahoga",
        "county_full":"Cuyahoga County",
        "county_fips":39035,
        "state_name":"Ohio",
        "lat":41.4243,
        "lng":-81.6586,
        "population":1245873
    },
    {
        "county":"Allegheny",
        "county_full":"Allegheny County",
        "county_fips":42003,
        "state_name":"Pennsylvania",
        "lat":40.4688,
        "lng":-79.9812,
        "population":1238177
    },
    {
        "county":"Salt Lake",
        "county_full":"Salt Lake County",
        "county_fips":49035,
        "state_name":"Utah",
        "lat":40.6673,
        "lng":-111.9236,
        "population":1196523
    },
    {
        "county":"Wake",
        "county_full":"Wake County",
        "county_fips":37183,
        "state_name":"North Carolina",
        "lat":35.7903,
        "lng":-78.6503,
        "population":1178653
    },
    {
        "county":"Contra Costa",
        "county_full":"Contra Costa County",
        "county_fips":6013,
        "state_name":"California",
        "lat":37.9192,
        "lng":-121.9275,
        "population":1165012
    },
    {
        "county":"Collin",
        "county_full":"Collin County",
        "county_fips":48085,
        "state_name":"Texas",
        "lat":33.188,
        "lng":-96.5724,
        "population":1163337
    },
    {
        "county":"Mecklenburg",
        "county_full":"Mecklenburg County",
        "county_fips":37119,
        "state_name":"North Carolina",
        "lat":35.2467,
        "lng":-80.8328,
        "population":1154681
    },
    {
        "county":"Fairfax",
        "county_full":"Fairfax County",
        "county_fips":51059,
        "state_name":"Virginia",
        "lat":38.8368,
        "lng":-77.277,
        "population":1147837
    },
    {
        "county":"Fulton",
        "county_full":"Fulton County",
        "county_fips":13121,
        "state_name":"Georgia",
        "lat":33.7903,
        "lng":-84.4671,
        "population":1076561
    },
    {
        "county":"Montgomery",
        "county_full":"Montgomery County",
        "county_fips":24031,
        "state_name":"Maryland",
        "lat":39.1363,
        "lng":-77.2042,
        "population":1065949
    },
    {
        "county":"Pima",
        "county_full":"Pima County",
        "county_fips":4019,
        "state_name":"Arizona",
        "lat":32.0974,
        "lng":-111.7899,
        "population":1060490
    },
    {
        "county":"Duval",
        "county_full":"Duval County",
        "county_fips":12031,
        "state_name":"Florida",
        "lat":30.3313,
        "lng":-81.6715,
        "population":1023153
    },
    {
        "county":"Fresno",
        "county_full":"Fresno County",
        "county_fips":6019,
        "state_name":"California",
        "lat":36.7582,
        "lng":-119.6493,
        "population":1016725
    },
    {
        "county":"Honolulu",
        "county_full":"Honolulu County",
        "county_fips":15003,
        "state_name":"Hawaii",
        "lat":21.4899,
        "lng":-158.0739,
        "population":1001146
    },
    {
        "county":"Westchester",
        "county_full":"Westchester County",
        "county_fips":36119,
        "state_name":"New York",
        "lat":41.1626,
        "lng":-73.7561,
        "population":999677
    },
    {
        "county":"St. Louis",
        "county_full":"St. Louis County",
        "county_fips":29189,
        "state_name":"Missouri",
        "lat":38.6407,
        "lng":-90.4434,
        "population":995569
    },
    {
        "county":"Gwinnett",
        "county_full":"Gwinnett County",
        "county_fips":13135,
        "state_name":"Georgia",
        "lat":33.9619,
        "lng":-84.0235,
        "population":979864
    },
    {
        "county":"Denton",
        "county_full":"Denton County",
        "county_fips":48121,
        "state_name":"Texas",
        "lat":33.2055,
        "lng":-97.1168,
        "population":979561
    },
    {
        "county":"Capitol",
        "county_full":"Capitol Planning Region",
        "county_fips":9110,
        "state_name":"Connecticut",
        "lat":41.8185,
        "lng":-72.572,
        "population":977290
    },
    {
        "county":"Marion",
        "county_full":"Marion County",
        "county_fips":18097,
        "state_name":"Indiana",
        "lat":39.7817,
        "lng":-86.1385,
        "population":975809
    },
    {
        "county":"Pinellas",
        "county_full":"Pinellas County",
        "county_fips":12103,
        "state_name":"Florida",
        "lat":27.9198,
        "lng":-82.7255,
        "population":963481
    },
    {
        "county":"Bergen",
        "county_full":"Bergen County",
        "county_fips":34003,
        "state_name":"New Jersey",
        "lat":40.9597,
        "lng":-74.0742,
        "population":962316
    },
    {
        "county":"Prince George's",
        "county_full":"Prince George's County",
        "county_fips":24033,
        "state_name":"Maryland",
        "lat":38.8295,
        "lng":-76.8473,
        "population":959754
    },
    {
        "county":"Erie",
        "county_full":"Erie County",
        "county_fips":36029,
        "state_name":"New York",
        "lat":42.7639,
        "lng":-78.7323,
        "population":950622
    },
    {
        "county":"Pierce",
        "county_full":"Pierce County",
        "county_fips":53053,
        "state_name":"Washington",
        "lat":47.0239,
        "lng":-122.1041,
        "population":930319
    },
    {
        "county":"DuPage",
        "county_full":"DuPage County",
        "county_fips":17043,
        "state_name":"Illinois",
        "lat":41.852,
        "lng":-88.0856,
        "population":930024
    },
    {
        "county":"Milwaukee",
        "county_full":"Milwaukee County",
        "county_fips":55079,
        "state_name":"Wisconsin",
        "lat":43.0072,
        "lng":-87.9669,
        "population":926331
    },
    {
        "county":"Shelby",
        "county_full":"Shelby County",
        "county_fips":47157,
        "state_name":"Tennessee",
        "lat":35.1843,
        "lng":-89.8938,
        "population":919173
    },
    {
        "county":"Kern",
        "county_full":"Kern County",
        "county_fips":6029,
        "state_name":"California",
        "lat":35.3426,
        "lng":-118.7301,
        "population":915075
    },
    {
        "county":"Fort Bend",
        "county_full":"Fort Bend County",
        "county_fips":48157,
        "state_name":"Texas",
        "lat":29.5275,
        "lng":-95.7709,
        "population":893767
    },
    {
        "county":"Hidalgo",
        "county_full":"Hidalgo County",
        "county_fips":48215,
        "state_name":"Texas",
        "lat":26.3969,
        "lng":-98.1812,
        "population":891977
    },
    {
        "county":"Macomb",
        "county_full":"Macomb County",
        "county_fips":26099,
        "state_name":"Michigan",
        "lat":42.6957,
        "lng":-82.9323,
        "population":879853
    },
    {
        "county":"Middlesex",
        "county_full":"Middlesex County",
        "county_fips":34023,
        "state_name":"New Jersey",
        "lat":40.4392,
        "lng":-74.4117,
        "population":871290
    },
    {
        "county":"El Paso",
        "county_full":"El Paso County",
        "county_fips":48141,
        "state_name":"Texas",
        "lat":31.7686,
        "lng":-106.2348,
        "population":870779
    },
    {
        "county":"Worcester",
        "county_full":"Worcester County",
        "county_fips":25027,
        "state_name":"Massachusetts",
        "lat":42.3514,
        "lng":-71.9077,
        "population":867788
    },
    {
        "county":"Montgomery",
        "county_full":"Montgomery County",
        "county_fips":42091,
        "state_name":"Pennsylvania",
        "lat":40.2108,
        "lng":-75.3673,
        "population":867573
    },
    {
        "county":"Essex",
        "county_full":"Essex County",
        "county_fips":34013,
        "state_name":"New Jersey",
        "lat":40.788,
        "lng":-74.2481,
        "population":863002
    },
    {
        "county":"Baltimore",
        "county_full":"Baltimore County",
        "county_fips":24005,
        "state_name":"Maryland",
        "lat":39.4629,
        "lng":-76.6395,
        "population":850796
    },
    {
        "county":"Snohomish",
        "county_full":"Snohomish County",
        "county_fips":53061,
        "state_name":"Washington",
        "lat":48.0474,
        "lng":-121.6972,
        "population":844430
    },
    {
        "county":"Ventura",
        "county_full":"Ventura County",
        "county_fips":6111,
        "state_name":"California",
        "lat":34.4561,
        "lng":-119.0836,
        "population":837469
    },
    {
        "county":"Hamilton",
        "county_full":"Hamilton County",
        "county_fips":39061,
        "state_name":"Ohio",
        "lat":39.1955,
        "lng":-84.5428,
        "population":830774
    },
    {
        "county":"San Francisco",
        "county_full":"San Francisco County",
        "county_fips":6075,
        "state_name":"California",
        "lat":37.7556,
        "lng":-122.445,
        "population":830235
    },
    {
        "county":"Lee",
        "county_full":"Lee County",
        "county_fips":12071,
        "state_name":"Florida",
        "lat":26.578,
        "lng":-81.8332,
        "population":817666
    },
    {
        "county":"Essex",
        "county_full":"Essex County",
        "county_fips":25009,
        "state_name":"Massachusetts",
        "lat":42.6732,
        "lng":-70.9524,
        "population":813054
    },
    {
        "county":"Oklahoma",
        "county_full":"Oklahoma County",
        "county_fips":40109,
        "state_name":"Oklahoma",
        "lat":35.5515,
        "lng":-97.4072,
        "population":806199
    },
    {
        "county":"Multnomah",
        "county_full":"Multnomah County",
        "county_fips":41051,
        "state_name":"Oregon",
        "lat":45.5468,
        "lng":-122.4149,
        "population":801477
    },
    {
        "county":"San Joaquin",
        "county_full":"San Joaquin County",
        "county_fips":6077,
        "state_name":"California",
        "lat":37.9348,
        "lng":-121.2714,
        "population":797334
    },
    {
        "county":"Polk",
        "county_full":"Polk County",
        "county_fips":12105,
        "state_name":"Florida",
        "lat":27.9489,
        "lng":-81.6976,
        "population":790694
    },
    {
        "county":"Suffolk",
        "county_full":"Suffolk County",
        "county_fips":25025,
        "state_name":"Massachusetts",
        "lat":42.3329,
        "lng":-71.0735,
        "population":785121
    },
    {
        "county":"Jefferson",
        "county_full":"Jefferson County",
        "county_fips":21111,
        "state_name":"Kentucky",
        "lat":38.1872,
        "lng":-85.6591,
        "population":783022
    },
    {
        "county":"Cobb",
        "county_full":"Cobb County",
        "county_fips":13067,
        "state_name":"Georgia",
        "lat":33.9416,
        "lng":-84.5767,
        "population":775208
    },
    {
        "county":"DeKalb",
        "county_full":"DeKalb County",
        "county_fips":13089,
        "state_name":"Georgia",
        "lat":33.7716,
        "lng":-84.2264,
        "population":765351
    },
    {
        "county":"Monroe",
        "county_full":"Monroe County",
        "county_fips":36055,
        "state_name":"New York",
        "lat":43.1464,
        "lng":-77.6961,
        "population":753753
    },
    {
        "county":"El Paso",
        "county_full":"El Paso County",
        "county_fips":8041,
        "state_name":"Colorado",
        "lat":38.8321,
        "lng":-104.5254,
        "population":742999
    },
    {
        "county":"San Mateo",
        "county_full":"San Mateo County",
        "county_fips":6081,
        "state_name":"California",
        "lat":37.4228,
        "lng":-122.3291,
        "population":742340
    },
    {
        "county":"Norfolk",
        "county_full":"Norfolk County",
        "county_fips":25021,
        "state_name":"Massachusetts",
        "lat":42.1603,
        "lng":-71.2118,
        "population":730082
    },
    {
        "county":"Jackson",
        "county_full":"Jackson County",
        "county_fips":29095,
        "state_name":"Missouri",
        "lat":39.0085,
        "lng":-94.3461,
        "population":719976
    },
    {
        "county":"Denver",
        "county_full":"Denver County",
        "county_fips":8031,
        "state_name":"Colorado",
        "lat":39.762,
        "lng":-104.8758,
        "population":718877
    },
    {
        "county":"Hudson",
        "county_full":"Hudson County",
        "county_fips":34017,
        "state_name":"New Jersey",
        "lat":40.7408,
        "lng":-74.0751,
        "population":718323
    },
    {
        "county":"Davidson",
        "county_full":"Davidson County",
        "county_fips":47037,
        "state_name":"Tennessee",
        "lat":36.1695,
        "lng":-86.7848,
        "population":715388
    },
    {
        "county":"Lake",
        "county_full":"Lake County",
        "county_fips":17097,
        "state_name":"Illinois",
        "lat":42.3233,
        "lng":-88.0037,
        "population":714223
    },
    {
        "county":"Utah",
        "county_full":"Utah County",
        "county_fips":49049,
        "state_name":"Utah",
        "lat":40.1199,
        "lng":-111.6702,
        "population":705400
    },
    {
        "county":"Will",
        "county_full":"Will County",
        "county_fips":17197,
        "state_name":"Illinois",
        "lat":41.445,
        "lng":-87.9786,
        "population":701462
    },
    {
        "county":"Montgomery",
        "county_full":"Montgomery County",
        "county_fips":48339,
        "state_name":"Texas",
        "lat":30.3002,
        "lng":-95.503,
        "population":684432
    },
    {
        "county":"District of Columbia",
        "county_full":"District of Columbia",
        "county_fips":11001,
        "state_name":"District of Columbia",
        "lat":38.9047,
        "lng":-77.0163,
        "population":681294
    },
    {
        "county":"Tulsa",
        "county_full":"Tulsa County",
        "county_fips":40143,
        "state_name":"Oklahoma",
        "lat":36.1211,
        "lng":-95.9415,
        "population":680794
    },
    {
        "county":"Bernalillo",
        "county_full":"Bernalillo County",
        "county_fips":35001,
        "state_name":"New Mexico",
        "lat":35.0514,
        "lng":-106.6702,
        "population":673930
    },
    {
        "county":"Williamson",
        "county_full":"Williamson County",
        "county_fips":48491,
        "state_name":"Texas",
        "lat":30.6475,
        "lng":-97.6004,
        "population":672688
    },
    {
        "county":"Jefferson",
        "county_full":"Jefferson County",
        "county_fips":1073,
        "state_name":"Alabama",
        "lat":33.5543,
        "lng":-86.8964,
        "population":667755
    },
    {
        "county":"Providence",
        "county_full":"Providence County",
        "county_fips":44007,
        "state_name":"Rhode Island",
        "lat":41.8721,
        "lng":-71.58,
        "population":664854
    },
    {
        "county":"Kent",
        "county_full":"Kent County",
        "county_fips":26081,
        "state_name":"Michigan",
        "lat":43.0322,
        "lng":-85.5493,
        "population":663150
    },
    {
        "county":"Arapahoe",
        "county_full":"Arapahoe County",
        "county_fips":8005,
        "state_name":"Colorado",
        "lat":39.6498,
        "lng":-104.3393,
        "population":659844
    },
    {
        "county":"Ocean",
        "county_full":"Ocean County",
        "county_fips":34029,
        "state_name":"New Jersey",
        "lat":39.8856,
        "lng":-74.2814,
        "population":654362
    },
    {
        "county":"Bucks",
        "county_full":"Bucks County",
        "county_fips":42017,
        "state_name":"Pennsylvania",
        "lat":40.3369,
        "lng":-75.1069,
        "population":647461
    },
    {
        "county":"Monmouth",
        "county_full":"Monmouth County",
        "county_fips":34025,
        "state_name":"New Jersey",
        "lat":40.26,
        "lng":-74.2216,
        "population":645353
    },
    {
        "county":"Brevard",
        "county_full":"Brevard County",
        "county_fips":12009,
        "state_name":"Florida",
        "lat":28.2937,
        "lng":-80.7323,
        "population":632780
    },
    {
        "county":"Western Connecticut",
        "county_full":"Western Connecticut Planning Region",
        "county_fips":9190,
        "state_name":"Connecticut",
        "lat":41.3225,
        "lng":-73.4475,
        "population":627071
    },
    {
        "county":"Johnson",
        "county_full":"Johnson County",
        "county_fips":20091,
        "state_name":"Kansas",
        "lat":38.8838,
        "lng":-94.8223,
        "population":620631
    },
    {
        "county":"Pasco",
        "county_full":"Pasco County",
        "county_fips":12101,
        "state_name":"Florida",
        "lat":28.3092,
        "lng":-82.392,
        "population":611444
    },
    {
        "county":"Washington",
        "county_full":"Washington County",
        "county_fips":41067,
        "state_name":"Oregon",
        "lat":45.56,
        "lng":-123.0984,
        "population":603947
    },
    {
        "county":"Anne Arundel",
        "county_full":"Anne Arundel County",
        "county_fips":24003,
        "state_name":"Maryland",
        "lat":39.0065,
        "lng":-76.6051,
        "population":598166
    },
    {
        "county":"Douglas",
        "county_full":"Douglas County",
        "county_fips":31055,
        "state_name":"Nebraska",
        "lat":41.2953,
        "lng":-96.1543,
        "population":590736
    },
    {
        "county":"Bristol",
        "county_full":"Bristol County",
        "county_fips":25005,
        "state_name":"Massachusetts",
        "lat":41.7972,
        "lng":-71.1145,
        "population":582270
    },
    {
        "county":"Volusia",
        "county_full":"Volusia County",
        "county_fips":12127,
        "state_name":"Florida",
        "lat":29.0584,
        "lng":-81.1819,
        "population":579622
    },
    {
        "county":"Jefferson",
        "county_full":"Jefferson County",
        "county_fips":8059,
        "state_name":"Colorado",
        "lat":39.5864,
        "lng":-105.2505,
        "population":579377
    },
    {
        "county":"Union",
        "county_full":"Union County",
        "county_fips":34039,
        "state_name":"New Jersey",
        "lat":40.6601,
        "lng":-74.31,
        "population":579290
    },
    {
        "county":"Delaware",
        "county_full":"Delaware County",
        "county_fips":42045,
        "state_name":"Pennsylvania",
        "lat":39.9167,
        "lng":-75.3991,
        "population":579222
    },
    {
        "county":"New Castle",
        "county_full":"New Castle County",
        "county_fips":10003,
        "state_name":"Delaware",
        "lat":39.5768,
        "lng":-75.6527,
        "population":577961
    },
    {
        "county":"Baltimore",
        "county_full":"Baltimore City",
        "county_fips":24510,
        "state_name":"Maryland",
        "lat":39.3051,
        "lng":-76.6144,
        "population":573243
    },
    {
        "county":"Dane",
        "county_full":"Dane County",
        "county_fips":55025,
        "state_name":"Wisconsin",
        "lat":43.0673,
        "lng":-89.4181,
        "population":572674
    },
    {
        "county":"South Central Connecticut",
        "county_full":"South Central Connecticut Planning Region",
        "county_fips":9170,
        "state_name":"Connecticut",
        "lat":41.3613,
        "lng":-72.8445,
        "population":570598
    },
    {
        "county":"Lancaster",
        "county_full":"Lancaster County",
        "county_fips":42071,
        "state_name":"Pennsylvania",
        "lat":40.0424,
        "lng":-76.2477,
        "population":557931
    },
    {
        "county":"Stanislaus",
        "county_full":"Stanislaus County",
        "county_fips":6099,
        "state_name":"California",
        "lat":37.5591,
        "lng":-120.9977,
        "population":553990
    },
    {
        "county":"Spokane",
        "county_full":"Spokane County",
        "county_fips":53063,
        "state_name":"Washington",
        "lat":47.6208,
        "lng":-117.404,
        "population":549056
    },
    {
        "county":"Greenville",
        "county_full":"Greenville County",
        "county_fips":45045,
        "state_name":"South Carolina",
        "lat":34.8941,
        "lng":-82.3706,
        "population":548166
    },
    {
        "county":"Guilford",
        "county_full":"Guilford County",
        "county_fips":37081,
        "state_name":"North Carolina",
        "lat":36.0795,
        "lng":-79.7889,
        "population":547940
    },
    {
        "county":"Chester",
        "county_full":"Chester County",
        "county_fips":42029,
        "state_name":"Pennsylvania",
        "lat":39.9731,
        "lng":-75.7484,
        "population":547840
    },
    {
        "county":"Ramsey",
        "county_full":"Ramsey County",
        "county_fips":27123,
        "state_name":"Minnesota",
        "lat":45.0171,
        "lng":-93.0996,
        "population":542945
    },
    {
        "county":"Summit",
        "county_full":"Summit County",
        "county_fips":39153,
        "state_name":"Ohio",
        "lat":41.126,
        "lng":-81.5322,
        "population":537864
    },
    {
        "county":"Montgomery",
        "county_full":"Montgomery County",
        "county_fips":39113,
        "state_name":"Ohio",
        "lat":39.7547,
        "lng":-84.2907,
        "population":536096
    },
    {
        "county":"Plymouth",
        "county_full":"Plymouth County",
        "county_fips":25023,
        "state_name":"Massachusetts",
        "lat":41.9511,
        "lng":-70.8115,
        "population":535075
    },
    {
        "county":"Adams",
        "county_full":"Adams County",
        "county_fips":8001,
        "state_name":"Colorado",
        "lat":39.8736,
        "lng":-104.3378,
        "population":530225
    },
    {
        "county":"Sedgwick",
        "county_full":"Sedgwick County",
        "county_fips":20173,
        "state_name":"Kansas",
        "lat":37.6848,
        "lng":-97.461,
        "population":528226
    },
    {
        "county":"Camden",
        "county_full":"Camden County",
        "county_fips":34007,
        "state_name":"New Jersey",
        "lat":39.8035,
        "lng":-74.9597,
        "population":527257
    },
    {
        "county":"Passaic",
        "county_full":"Passaic County",
        "county_fips":34031,
        "state_name":"New Jersey",
        "lat":41.0344,
        "lng":-74.3009,
        "population":521012
    },
    {
        "county":"Ada",
        "county_full":"Ada County",
        "county_fips":16001,
        "state_name":"Idaho",
        "lat":43.4512,
        "lng":-116.2412,
        "population":518935
    },
    {
        "county":"Kane",
        "county_full":"Kane County",
        "county_fips":17089,
        "state_name":"Illinois",
        "lat":41.9388,
        "lng":-88.4286,
        "population":517255
    },
    {
        "county":"Clark",
        "county_full":"Clark County",
        "county_fips":53011,
        "state_name":"Washington",
        "lat":45.7792,
        "lng":-122.4825,
        "population":516959
    },
    {
        "county":"Morris",
        "county_full":"Morris County",
        "county_fips":34027,
        "state_name":"New Jersey",
        "lat":40.862,
        "lng":-74.5445,
        "population":514528
    },
    {
        "county":"Polk",
        "county_full":"Polk County",
        "county_fips":19153,
        "state_name":"Iowa",
        "lat":41.6854,
        "lng":-93.5734,
        "population":503175
    },
    {
        "county":"Lake",
        "county_full":"Lake County",
        "county_fips":18089,
        "state_name":"Indiana",
        "lat":41.4167,
        "lng":-87.3821,
        "population":500379
    },
    {
        "county":"Washoe",
        "county_full":"Washoe County",
        "county_fips":32031,
        "state_name":"Nevada",
        "lat":40.6655,
        "lng":-119.6643,
        "population":497200
    },
    {
        "county":"Richmond",
        "county_full":"Richmond County",
        "county_fips":36085,
        "state_name":"New York",
        "lat":40.5808,
        "lng":-74.1531,
        "population":494956
    },
    {
        "county":"Knox",
        "county_full":"Knox County",
        "county_fips":47093,
        "state_name":"Tennessee",
        "lat":35.9932,
        "lng":-83.9371,
        "population":494148
    },
    {
        "county":"Prince William",
        "county_full":"Prince William County",
        "county_fips":51153,
        "state_name":"Virginia",
        "lat":38.7029,
        "lng":-77.4809,
        "population":488880
    },
    {
        "county":"Sonoma",
        "county_full":"Sonoma County",
        "county_fips":6097,
        "state_name":"California",
        "lat":38.529,
        "lng":-122.8882,
        "population":485040
    },
    {
        "county":"Seminole",
        "county_full":"Seminole County",
        "county_fips":12117,
        "state_name":"Florida",
        "lat":28.717,
        "lng":-81.2363,
        "population":481470
    },
    {
        "county":"Tulare",
        "county_full":"Tulare County",
        "county_fips":6107,
        "state_name":"California",
        "lat":36.2202,
        "lng":-118.8005,
        "population":478693
    },
    {
        "county":"Onondaga",
        "county_full":"Onondaga County",
        "county_fips":36067,
        "state_name":"New York",
        "lat":43.0058,
        "lng":-76.1946,
        "population":471129
    },
    {
        "county":"Pinal",
        "county_full":"Pinal County",
        "county_fips":4021,
        "state_name":"Arizona",
        "lat":32.9044,
        "lng":-111.3448,
        "population":469006
    },
    {
        "county":"Burlington",
        "county_full":"Burlington County",
        "county_fips":34005,
        "state_name":"New Jersey",
        "lat":39.8777,
        "lng":-74.6681,
        "population":467805
    },
    {
        "county":"York",
        "county_full":"York County",
        "county_fips":42133,
        "state_name":"Pennsylvania",
        "lat":39.92,
        "lng":-76.7265,
        "population":462924
    },
    {
        "county":"Hampden",
        "county_full":"Hampden County",
        "county_fips":25013,
        "state_name":"Massachusetts",
        "lat":42.1351,
        "lng":-72.6316,
        "population":462815
    },
    {
        "county":"Sarasota",
        "county_full":"Sarasota County",
        "county_fips":12115,
        "state_name":"Florida",
        "lat":27.1845,
        "lng":-82.3315,
        "population":459547
    },
    {
        "county":"Virginia Beach",
        "county_full":"Virginia Beach City",
        "county_fips":51810,
        "state_name":"Virginia",
        "lat":36.7335,
        "lng":-76.0435,
        "population":456349
    },
    {
        "county":"Naugatuck Valley",
        "county_full":"Naugatuck Valley Planning Region",
        "county_fips":9140,
        "state_name":"Connecticut",
        "lat":41.5231,
        "lng":-73.086,
        "population":454969
    },
    {
        "county":"East Baton Rouge",
        "county_full":"East Baton Rouge Parish",
        "county_fips":22033,
        "state_name":"Louisiana",
        "lat":30.5383,
        "lng":-91.0956,
        "population":452938
    },
    {
        "county":"Solano",
        "county_full":"Solano County",
        "county_fips":6095,
        "state_name":"California",
        "lat":38.27,
        "lng":-121.9328,
        "population":451918
    },
    {
        "county":"Dakota",
        "county_full":"Dakota County",
        "county_fips":27037,
        "state_name":"Minnesota",
        "lat":44.6719,
        "lng":-93.0654,
        "population":445771
    },
    {
        "county":"Santa Barbara",
        "county_full":"Santa Barbara County",
        "county_fips":6083,
        "state_name":"California",
        "lat":34.6729,
        "lng":-120.0169,
        "population":443701
    },
    {
        "county":"Monterey",
        "county_full":"Monterey County",
        "county_fips":6053,
        "state_name":"California",
        "lat":36.2171,
        "lng":-121.2388,
        "population":437613
    },
    {
        "county":"Berks",
        "county_full":"Berks County",
        "county_fips":42011,
        "state_name":"Pennsylvania",
        "lat":40.4163,
        "lng":-75.926,
        "population":433015
    },
    {
        "county":"Loudoun",
        "county_full":"Loudoun County",
        "county_fips":51107,
        "state_name":"Virginia",
        "lat":39.0907,
        "lng":-77.6357,
        "population":432998
    },
    {
        "county":"Jefferson",
        "county_full":"Jefferson Parish",
        "county_fips":22051,
        "state_name":"Louisiana",
        "lat":29.7882,
        "lng":-90.1276,
        "population":430920
    },
    {
        "county":"Manatee",
        "county_full":"Manatee County",
        "county_fips":12081,
        "state_name":"Florida",
        "lat":27.4719,
        "lng":-82.3153,
        "population":429792
    },
    {
        "county":"Lucas",
        "county_full":"Lucas County",
        "county_fips":39095,
        "state_name":"Ohio",
        "lat":41.6197,
        "lng":-83.6589,
        "population":428018
    },
    {
        "county":"Osceola",
        "county_full":"Osceola County",
        "county_fips":12097,
        "state_name":"Florida",
        "lat":28.0626,
        "lng":-81.1495,
        "population":427415
    },
    {
        "county":"Hillsborough",
        "county_full":"Hillsborough County",
        "county_fips":33011,
        "state_name":"New Hampshire",
        "lat":42.9153,
        "lng":-71.7161,
        "population":426378
    },
    {
        "county":"Cameron",
        "county_full":"Cameron County",
        "county_fips":48061,
        "state_name":"Texas",
        "lat":26.1333,
        "lng":-97.5187,
        "population":426120
    },
    {
        "county":"Clackamas",
        "county_full":"Clackamas County",
        "county_fips":41005,
        "state_name":"Oregon",
        "lat":45.188,
        "lng":-122.2208,
        "population":423975
    },
    {
        "county":"Richland",
        "county_full":"Richland County",
        "county_fips":45079,
        "state_name":"South Carolina",
        "lat":34.0218,
        "lng":-80.9031,
        "population":422117
    },
    {
        "county":"Charleston",
        "county_full":"Charleston County",
        "county_fips":45019,
        "state_name":"South Carolina",
        "lat":32.8348,
        "lng":-79.9531,
        "population":420264
    },
    {
        "county":"Placer",
        "county_full":"Placer County",
        "county_fips":6061,
        "state_name":"California",
        "lat":39.0634,
        "lng":-120.7177,
        "population":419156
    },
    {
        "county":"St. Charles",
        "county_full":"St. Charles County",
        "county_fips":29183,
        "state_name":"Missouri",
        "lat":38.782,
        "lng":-90.6749,
        "population":414535
    },
    {
        "county":"Lake",
        "county_full":"Lake County",
        "county_fips":12069,
        "state_name":"Florida",
        "lat":28.7615,
        "lng":-81.7113,
        "population":412924
    },
    {
        "county":"Mobile",
        "county_full":"Mobile County",
        "county_fips":1097,
        "state_name":"Alabama",
        "lat":30.7877,
        "lng":-88.2058,
        "population":412590
    },
    {
        "county":"Waukesha",
        "county_full":"Waukesha County",
        "county_fips":55133,
        "state_name":"Wisconsin",
        "lat":43.0182,
        "lng":-88.3045,
        "population":411762
    },
    {
        "county":"Orange",
        "county_full":"Orange County",
        "county_fips":36071,
        "state_name":"New York",
        "lat":41.4022,
        "lng":-74.3056,
        "population":406616
    },
    {
        "county":"Madison",
        "county_full":"Madison County",
        "county_fips":1089,
        "state_name":"Alabama",
        "lat":34.7631,
        "lng":-86.5502,
        "population":405718
    },
    {
        "county":"Genesee",
        "county_full":"Genesee County",
        "county_fips":26049,
        "state_name":"Michigan",
        "lat":43.0217,
        "lng":-83.7067,
        "population":403305
    },
    {
        "county":"Marion",
        "county_full":"Marion County",
        "county_fips":12083,
        "state_name":"Florida",
        "lat":29.2102,
        "lng":-82.0567,
        "population":400078
    },
    {
        "county":"Pulaski",
        "county_full":"Pulaski County",
        "county_fips":5119,
        "state_name":"Arkansas",
        "lat":34.77,
        "lng":-92.312,
        "population":399818
    },
    {
        "county":"Collier",
        "county_full":"Collier County",
        "county_fips":12021,
        "state_name":"Florida",
        "lat":26.1108,
        "lng":-81.3474,
        "population":398291
    },
    {
        "county":"Butler",
        "county_full":"Butler County",
        "county_fips":39017,
        "state_name":"Ohio",
        "lat":39.4386,
        "lng":-84.5756,
        "population":392876
    },
    {
        "county":"Allen",
        "county_full":"Allen County",
        "county_fips":18003,
        "state_name":"Indiana",
        "lat":41.0909,
        "lng":-85.0665,
        "population":392378
    },
    {
        "county":"Brazoria",
        "county_full":"Brazoria County",
        "county_fips":48039,
        "state_name":"Texas",
        "lat":29.1898,
        "lng":-95.4521,
        "population":391255
    },
    {
        "county":"Forsyth",
        "county_full":"Forsyth County",
        "county_fips":37067,
        "state_name":"North Carolina",
        "lat":36.1306,
        "lng":-80.2564,
        "population":389977
    },
    {
        "county":"Bell",
        "county_full":"Bell County",
        "county_fips":48027,
        "state_name":"Texas",
        "lat":31.0373,
        "lng":-97.4788,
        "population":386897
    },
    {
        "county":"Mercer",
        "county_full":"Mercer County",
        "county_fips":34021,
        "state_name":"New Jersey",
        "lat":40.2834,
        "lng":-74.7018,
        "population":385864
    },
    {
        "county":"Lane",
        "county_full":"Lane County",
        "county_fips":41039,
        "state_name":"Oregon",
        "lat":43.9387,
        "lng":-122.8479,
        "population":384207
    },
    {
        "county":"Horry",
        "county_full":"Horry County",
        "county_fips":45051,
        "state_name":"South Carolina",
        "lat":33.9216,
        "lng":-78.9969,
        "population":383016
    },
    {
        "county":"Lehigh",
        "county_full":"Lehigh County",
        "county_fips":42077,
        "state_name":"Pennsylvania",
        "lat":40.6127,
        "lng":-75.5923,
        "population":378792
    },
    {
        "county":"Chesterfield",
        "county_full":"Chesterfield County",
        "county_fips":51041,
        "state_name":"Virginia",
        "lat":37.3785,
        "lng":-77.587,
        "population":377869
    },
    {
        "county":"Douglas",
        "county_full":"Douglas County",
        "county_fips":8035,
        "state_name":"Colorado",
        "lat":39.3298,
        "lng":-104.9293,
        "population":377150
    },
    {
        "county":"Hamilton",
        "county_full":"Hamilton County",
        "county_fips":47065,
        "state_name":"Tennessee",
        "lat":35.1808,
        "lng":-85.1648,
        "population":376192
    },
    {
        "county":"Stark",
        "county_full":"Stark County",
        "county_fips":39151,
        "state_name":"Ohio",
        "lat":40.8139,
        "lng":-81.3656,
        "population":373713
    },
    {
        "county":"Orleans",
        "county_full":"Orleans Parish",
        "county_fips":22071,
        "state_name":"Louisiana",
        "lat":30.0687,
        "lng":-89.9289,
        "population":371853
    },
    {
        "county":"Davis",
        "county_full":"Davis County",
        "county_fips":49011,
        "state_name":"Utah",
        "lat":40.99,
        "lng":-112.1115,
        "population":370924
    },
    {
        "county":"Anoka",
        "county_full":"Anoka County",
        "county_fips":27003,
        "state_name":"Minnesota",
        "lat":45.2733,
        "lng":-93.2465,
        "population":370349
    },
    {
        "county":"Washtenaw",
        "county_full":"Washtenaw County",
        "county_fips":26161,
        "state_name":"Michigan",
        "lat":42.2532,
        "lng":-83.8388,
        "population":369822
    },
    {
        "county":"Larimer",
        "county_full":"Larimer County",
        "county_fips":8069,
        "state_name":"Colorado",
        "lat":40.6664,
        "lng":-105.4611,
        "population":367368
    },
    {
        "county":"Hamilton",
        "county_full":"Hamilton County",
        "county_fips":18057,
        "state_name":"Indiana",
        "lat":40.0725,
        "lng":-86.052,
        "population":365056
    },
    {
        "county":"Rutherford",
        "county_full":"Rutherford County",
        "county_fips":47149,
        "state_name":"Tennessee",
        "lat":35.8427,
        "lng":-86.4167,
        "population":360646
    },
    {
        "county":"St. Lucie",
        "county_full":"St. Lucie County",
        "county_fips":12111,
        "state_name":"Florida",
        "lat":27.3773,
        "lng":-80.4721,
        "population":360500
    },
    {
        "county":"Galveston",
        "county_full":"Galveston County",
        "county_fips":48167,
        "state_name":"Texas",
        "lat":29.3944,
        "lng":-94.9642,
        "population":358990
    },
    {
        "county":"Nueces",
        "county_full":"Nueces County",
        "county_fips":48355,
        "state_name":"Texas",
        "lat":27.7254,
        "lng":-97.6134,
        "population":352955
    },
    {
        "county":"Westmoreland",
        "county_full":"Westmoreland County",
        "county_fips":42129,
        "state_name":"Pennsylvania",
        "lat":40.3109,
        "lng":-79.4668,
        "population":352500
    },
    {
        "county":"Weld",
        "county_full":"Weld County",
        "county_fips":8123,
        "state_name":"Colorado",
        "lat":40.5548,
        "lng":-104.3925,
        "population":350396
    },
    {
        "county":"Somerset",
        "county_full":"Somerset County",
        "county_fips":34035,
        "state_name":"New Jersey",
        "lat":40.5635,
        "lng":-74.6163,
        "population":349846
    },
    {
        "county":"Marion",
        "county_full":"Marion County",
        "county_fips":41047,
        "state_name":"Oregon",
        "lat":44.9033,
        "lng":-122.5846,
        "population":349244
    },
    {
        "county":"Spartanburg",
        "county_full":"Spartanburg County",
        "county_fips":45083,
        "state_name":"South Carolina",
        "lat":34.9309,
        "lng":-81.9908,
        "population":347852
    },
    {
        "county":"Rockland",
        "county_full":"Rockland County",
        "county_fips":36087,
        "state_name":"New York",
        "lat":41.1525,
        "lng":-74.0242,
        "population":341883
    },
    {
        "county":"Cumberland",
        "county_full":"Cumberland County",
        "county_fips":37051,
        "state_name":"North Carolina",
        "lat":35.0487,
        "lng":-78.8277,
        "population":338545
    },
    {
        "county":"Howard",
        "county_full":"Howard County",
        "county_fips":24027,
        "state_name":"Maryland",
        "lat":39.2507,
        "lng":-76.9312,
        "population":336328
    },
    {
        "county":"Henrico",
        "county_full":"Henrico County",
        "county_fips":51087,
        "state_name":"Virginia",
        "lat":37.538,
        "lng":-77.4058,
        "population":335744
    },
    {
        "county":"Durham",
        "county_full":"Durham County",
        "county_fips":37063,
        "state_name":"North Carolina",
        "lat":36.036,
        "lng":-78.8766,
        "population":332353
    },
    {
        "county":"Greater Bridgeport",
        "county_full":"Greater Bridgeport Planning Region",
        "county_fips":9120,
        "state_name":"Connecticut",
        "lat":41.2428,
        "lng":-73.2314,
        "population":329259
    },
    {
        "county":"Boulder",
        "county_full":"Boulder County",
        "county_fips":8013,
        "state_name":"Colorado",
        "lat":40.0925,
        "lng":-105.3577,
        "population":328961
    },
    {
        "county":"Luzerne",
        "county_full":"Luzerne County",
        "county_fips":42079,
        "state_name":"Pennsylvania",
        "lat":41.177,
        "lng":-75.9892,
        "population":327675
    },
    {
        "county":"Lancaster",
        "county_full":"Lancaster County",
        "county_fips":31109,
        "state_name":"Nebraska",
        "lat":40.7842,
        "lng":-96.6878,
        "population":326696
    },
    {
        "county":"Escambia",
        "county_full":"Escambia County",
        "county_fips":12033,
        "state_name":"Florida",
        "lat":30.669,
        "lng":-87.363,
        "population":325923
    },
    {
        "county":"Fayette",
        "county_full":"Fayette County",
        "county_fips":21067,
        "state_name":"Kentucky",
        "lat":38.0423,
        "lng":-84.4587,
        "population":323725
    },
    {
        "county":"Rockingham",
        "county_full":"Rockingham County",
        "county_fips":33015,
        "state_name":"New Hampshire",
        "lat":42.9876,
        "lng":-71.1254,
        "population":319082
    },
    {
        "county":"Lubbock",
        "county_full":"Lubbock County",
        "county_fips":48303,
        "state_name":"Texas",
        "lat":33.6102,
        "lng":-101.8205,
        "population":318884
    },
    {
        "county":"Northampton",
        "county_full":"Northampton County",
        "county_fips":42095,
        "state_name":"Pennsylvania",
        "lat":40.7542,
        "lng":-75.3076,
        "population":318580
    },
    {
        "county":"Lorain",
        "county_full":"Lorain County",
        "county_fips":39093,
        "state_name":"Ohio",
        "lat":41.2956,
        "lng":-82.151,
        "population":317129
    },
    {
        "county":"Albany",
        "county_full":"Albany County",
        "county_fips":36001,
        "state_name":"New York",
        "lat":42.6002,
        "lng":-73.9736,
        "population":317018
    },
    {
        "county":"McHenry",
        "county_full":"McHenry County",
        "county_fips":17111,
        "state_name":"Illinois",
        "lat":42.3244,
        "lng":-88.4523,
        "population":312591
    },
    {
        "county":"Cumberland",
        "county_full":"Cumberland County",
        "county_fips":23005,
        "state_name":"Maine",
        "lat":43.8466,
        "lng":-70.3996,
        "population":308827
    },
    {
        "county":"Gloucester",
        "county_full":"Gloucester County",
        "county_fips":34015,
        "state_name":"New Jersey",
        "lat":39.7173,
        "lng":-75.1414,
        "population":306954
    },
    {
        "county":"St. Johns",
        "county_full":"St. Johns County",
        "county_fips":12109,
        "state_name":"Florida",
        "lat":29.9016,
        "lng":-81.4407,
        "population":306934
    },
    {
        "county":"Lexington",
        "county_full":"Lexington County",
        "county_fips":45063,
        "state_name":"South Carolina",
        "lat":33.9023,
        "lng":-81.272,
        "population":304887
    },
    {
        "county":"Benton",
        "county_full":"Benton County",
        "county_fips":5007,
        "state_name":"Arkansas",
        "lat":36.3387,
        "lng":-94.2561,
        "population":303632
    },
    {
        "county":"Greene",
        "county_full":"Greene County",
        "county_fips":29077,
        "state_name":"Missouri",
        "lat":37.2581,
        "lng":-93.342,
        "population":303375
    },
    {
        "county":"Ottawa",
        "county_full":"Ottawa County",
        "county_fips":26139,
        "state_name":"Michigan",
        "lat":42.9599,
        "lng":-85.996,
        "population":301203
    },
    {
        "county":"Chatham",
        "county_full":"Chatham County",
        "county_fips":13051,
        "state_name":"Georgia",
        "lat":32.0043,
        "lng":-81.1329,
        "population":300879
    },
    {
        "county":"Cleveland",
        "county_full":"Cleveland County",
        "county_fips":40027,
        "state_name":"Oklahoma",
        "lat":35.2031,
        "lng":-97.3265,
        "population":300047
    },
    {
        "county":"Thurston",
        "county_full":"Thurston County",
        "county_fips":53067,
        "state_name":"Washington",
        "lat":46.9256,
        "lng":-122.8333,
        "population":299067
    },
    {
        "county":"Clayton",
        "county_full":"Clayton County",
        "county_fips":13063,
        "state_name":"Georgia",
        "lat":33.5419,
        "lng":-84.3576,
        "population":298924
    },
    {
        "county":"Dutchess",
        "county_full":"Dutchess County",
        "county_fips":36027,
        "state_name":"New York",
        "lat":41.7652,
        "lng":-73.7429,
        "population":298220
    },
    {
        "county":"Leon",
        "county_full":"Leon County",
        "county_fips":12073,
        "state_name":"Florida",
        "lat":30.458,
        "lng":-84.2779,
        "population":297542
    },
    {
        "county":"York",
        "county_full":"York County",
        "county_fips":45091,
        "state_name":"South Carolina",
        "lat":34.9749,
        "lng":-81.1844,
        "population":293673
    },
    {
        "county":"Merced",
        "county_full":"Merced County",
        "county_fips":6047,
        "state_name":"California",
        "lat":37.1919,
        "lng":-120.7177,
        "population":290201
    },
    {
        "county":"Dauphin",
        "county_full":"Dauphin County",
        "county_fips":42043,
        "state_name":"Pennsylvania",
        "lat":40.4155,
        "lng":-76.7794,
        "population":289593
    },
    {
        "county":"Anchorage",
        "county_full":"Anchorage Municipality",
        "county_fips":2020,
        "state_name":"Alaska",
        "lat":61.1498,
        "lng":-149.1082,
        "population":288976
    },
    {
        "county":"St. Louis",
        "county_full":"St. Louis City",
        "county_fips":29510,
        "state_name":"Missouri",
        "lat":38.6358,
        "lng":-90.2451,
        "population":288512
    },
    {
        "county":"Frederick",
        "county_full":"Frederick County",
        "county_fips":24021,
        "state_name":"Maryland",
        "lat":39.4722,
        "lng":-77.398,
        "population":287048
    },
    {
        "county":"Alachua",
        "county_full":"Alachua County",
        "county_fips":12001,
        "state_name":"Florida",
        "lat":29.6747,
        "lng":-82.3577,
        "population":285492
    },
    {
        "county":"Ingham",
        "county_full":"Ingham County",
        "county_fips":26065,
        "state_name":"Michigan",
        "lat":42.5971,
        "lng":-84.3735,
        "population":283913
    },
    {
        "county":"Winnebago",
        "county_full":"Winnebago County",
        "county_fips":17201,
        "state_name":"Illinois",
        "lat":42.3363,
        "lng":-89.1609,
        "population":283292
    },
    {
        "county":"San Luis Obispo",
        "county_full":"San Luis Obispo County",
        "county_fips":6079,
        "state_name":"California",
        "lat":35.3871,
        "lng":-120.4044,
        "population":281555
    },
    {
        "county":"Cherokee",
        "county_full":"Cherokee County",
        "county_fips":13057,
        "state_name":"Georgia",
        "lat":34.244,
        "lng":-84.4762,
        "population":281032
    },
    {
        "county":"Southeastern Connecticut",
        "county_full":"Southeastern Connecticut Planning Region",
        "county_fips":9180,
        "state_name":"Connecticut",
        "lat":41.5023,
        "lng":-72.1,
        "population":279971
    },
    {
        "county":"Kitsap",
        "county_full":"Kitsap County",
        "county_fips":53035,
        "state_name":"Washington",
        "lat":47.6127,
        "lng":-122.6762,
        "population":277881
    },
    {
        "county":"Atlantic",
        "county_full":"Atlantic County",
        "county_fips":34001,
        "state_name":"New Jersey",
        "lat":39.4778,
        "lng":-74.6613,
        "population":276270
    },
    {
        "county":"Washington",
        "county_full":"Washington County",
        "county_fips":27163,
        "state_name":"Minnesota",
        "lat":45.0388,
        "lng":-92.8838,
        "population":276238
    },
    {
        "county":"Buncombe",
        "county_full":"Buncombe County",
        "county_fips":37021,
        "state_name":"North Carolina",
        "lat":35.6112,
        "lng":-82.5301,
        "population":274360
    },
    {
        "county":"St. Joseph",
        "county_full":"St. Joseph County",
        "county_fips":18141,
        "state_name":"Indiana",
        "lat":41.6167,
        "lng":-86.2899,
        "population":273040
    },
    {
        "county":"St. Tammany",
        "county_full":"St. Tammany Parish",
        "county_fips":22103,
        "state_name":"Louisiana",
        "lat":30.4103,
        "lng":-89.9584,
        "population":272421
    },
    {
        "county":"Brown",
        "county_full":"Brown County",
        "county_fips":55009,
        "state_name":"Wisconsin",
        "lat":44.4525,
        "lng":-88.0037,
        "population":270892
    },
    {
        "county":"Weber",
        "county_full":"Weber County",
        "county_fips":49057,
        "state_name":"Utah",
        "lat":41.2698,
        "lng":-111.9134,
        "population":269648
    },
    {
        "county":"Webb",
        "county_full":"Webb County",
        "county_fips":48479,
        "state_name":"Texas",
        "lat":27.7611,
        "lng":-99.3315,
        "population":269294
    },
    {
        "county":"Erie",
        "county_full":"Erie County",
        "county_fips":42049,
        "state_name":"Pennsylvania",
        "lat":41.9925,
        "lng":-80.0327,
        "population":269052
    },
    {
        "county":"Hays",
        "county_full":"Hays County",
        "county_fips":48209,
        "state_name":"Texas",
        "lat":30.0579,
        "lng":-98.0312,
        "population":268638
    },
    {
        "county":"Cumberland",
        "county_full":"Cumberland County",
        "county_fips":42041,
        "state_name":"Pennsylvania",
        "lat":40.1636,
        "lng":-77.2655,
        "population":268323
    },
    {
        "county":"Forsyth",
        "county_full":"Forsyth County",
        "county_fips":13117,
        "state_name":"Georgia",
        "lat":34.2255,
        "lng":-84.125,
        "population":267287
    },
    {
        "county":"McLennan",
        "county_full":"McLennan County",
        "county_fips":48309,
        "state_name":"Texas",
        "lat":31.5524,
        "lng":-97.2018,
        "population":266067
    },
    {
        "county":"Santa Cruz",
        "county_full":"Santa Cruz County",
        "county_fips":6087,
        "state_name":"California",
        "lat":37.0562,
        "lng":-122.0018,
        "population":264926
    },
    {
        "county":"Madison",
        "county_full":"Madison County",
        "county_fips":17119,
        "state_name":"Illinois",
        "lat":38.8297,
        "lng":-89.9049,
        "population":264238
    },
    {
        "county":"Harford",
        "county_full":"Harford County",
        "county_fips":24025,
        "state_name":"Maryland",
        "lat":39.5611,
        "lng":-76.3171,
        "population":263757
    },
    {
        "county":"Kalamazoo",
        "county_full":"Kalamazoo County",
        "county_fips":26077,
        "state_name":"Michigan",
        "lat":42.2455,
        "lng":-85.5312,
        "population":262375
    },
    {
        "county":"Williamson",
        "county_full":"Williamson County",
        "county_fips":47187,
        "state_name":"Tennessee",
        "lat":35.8938,
        "lng":-86.8987,
        "population":260351
    },
    {
        "county":"Clay",
        "county_full":"Clay County",
        "county_fips":29047,
        "state_name":"Missouri",
        "lat":39.3105,
        "lng":-94.4209,
        "population":258122
    },
    {
        "county":"Marin",
        "county_full":"Marin County",
        "county_fips":6041,
        "state_name":"California",
        "lat":38.0735,
        "lng":-122.7236,
        "population":257969
    },
    {
        "county":"Yakima",
        "county_full":"Yakima County",
        "county_fips":53077,
        "state_name":"Washington",
        "lat":46.4571,
        "lng":-120.7385,
        "population":257152
    },
    {
        "county":"Washington",
        "county_full":"Washington County",
        "county_fips":5143,
        "state_name":"Arkansas",
        "lat":35.9791,
        "lng":-94.2156,
        "population":256765
    },
    {
        "county":"Sussex",
        "county_full":"Sussex County",
        "county_fips":10005,
        "state_name":"Delaware",
        "lat":38.6606,
        "lng":-75.39,
        "population":255626
    },
    {
        "county":"Jefferson",
        "county_full":"Jefferson County",
        "county_fips":48245,
        "state_name":"Texas",
        "lat":29.8841,
        "lng":-94.1629,
        "population":253878
    },
    {
        "county":"St. Clair",
        "county_full":"St. Clair County",
        "county_fips":17163,
        "state_name":"Illinois",
        "lat":38.4703,
        "lng":-89.9284,
        "population":253694
    },
    {
        "county":"Chesapeake",
        "county_full":"Chesapeake City",
        "county_fips":51550,
        "state_name":"Virginia",
        "lat":36.6778,
        "lng":-76.3023,
        "population":252583
    },
    {
        "county":"Union",
        "county_full":"Union County",
        "county_fips":37179,
        "state_name":"North Carolina",
        "lat":34.9884,
        "lng":-80.5307,
        "population":250958
    },
    {
        "county":"Canyon",
        "county_full":"Canyon County",
        "county_fips":16027,
        "state_name":"Idaho",
        "lat":43.6251,
        "lng":-116.7093,
        "population":250790
    },
    {
        "county":"Warren",
        "county_full":"Warren County",
        "county_fips":39165,
        "state_name":"Ohio",
        "lat":39.4277,
        "lng":-84.1668,
        "population":250008
    },
    {
        "county":"Henry",
        "county_full":"Henry County",
        "county_fips":13151,
        "state_name":"Georgia",
        "lat":33.453,
        "lng":-84.1542,
        "population":249960
    },
    {
        "county":"Lafayette",
        "county_full":"Lafayette Parish",
        "county_fips":22055,
        "state_name":"Louisiana",
        "lat":30.2068,
        "lng":-92.0639,
        "population":247997
    },
    {
        "county":"Baldwin",
        "county_full":"Baldwin County",
        "county_fips":1003,
        "state_name":"Alabama",
        "lat":30.7277,
        "lng":-87.7226,
        "population":246989
    },
    {
        "county":"Berkeley",
        "county_full":"Berkeley County",
        "county_fips":45015,
        "state_name":"South Carolina",
        "lat":33.1971,
        "lng":-79.9522,
        "population":246802
    },
    {
        "county":"Yavapai",
        "county_full":"Yavapai County",
        "county_fips":4025,
        "state_name":"Arizona",
        "lat":34.5998,
        "lng":-112.5538,
        "population":245480
    },
    {
        "county":"Brazos",
        "county_full":"Brazos County",
        "county_fips":48041,
        "state_name":"Texas",
        "lat":30.6608,
        "lng":-96.3024,
        "population":242311
    },
    {
        "county":"Smith",
        "county_full":"Smith County",
        "county_fips":48423,
        "state_name":"Texas",
        "lat":32.375,
        "lng":-95.2692,
        "population":241740
    },
    {
        "county":"Saratoga",
        "county_full":"Saratoga County",
        "county_fips":36091,
        "state_name":"New York",
        "lat":43.1074,
        "lng":-73.8639,
        "population":238284
    },
    {
        "county":"Tuscaloosa",
        "county_full":"Tuscaloosa County",
        "county_fips":1125,
        "state_name":"Alabama",
        "lat":33.2896,
        "lng":-87.5251,
        "population":237552
    },
    {
        "county":"Arlington",
        "county_full":"Arlington County",
        "county_fips":51013,
        "state_name":"Virginia",
        "lat":38.8786,
        "lng":-77.1011,
        "population":236254
    },
    {
        "county":"Cabarrus",
        "county_full":"Cabarrus County",
        "county_fips":37025,
        "state_name":"North Carolina",
        "lat":35.3868,
        "lng":-80.5519,
        "population":236133
    },
    {
        "county":"New Hanover",
        "county_full":"New Hanover County",
        "county_fips":37129,
        "state_name":"North Carolina",
        "lat":34.2329,
        "lng":-77.8848,
        "population":235229
    },
    {
        "county":"Gaston",
        "county_full":"Gaston County",
        "county_fips":37071,
        "state_name":"North Carolina",
        "lat":35.2944,
        "lng":-81.1803,
        "population":234881
    },
    {
        "county":"Johnston",
        "county_full":"Johnston County",
        "county_fips":37101,
        "state_name":"North Carolina",
        "lat":35.5178,
        "lng":-78.3657,
        "population":234263
    },
    {
        "county":"Montgomery",
        "county_full":"Montgomery County",
        "county_fips":47125,
        "state_name":"Tennessee",
        "lat":36.4969,
        "lng":-87.3828,
        "population":234153
    },
    {
        "county":"Norfolk",
        "county_full":"Norfolk City",
        "county_fips":51710,
        "state_name":"Virginia",
        "lat":36.8947,
        "lng":-76.257,
        "population":233596
    },
    {
        "county":"Lake",
        "county_full":"Lake County",
        "county_fips":39085,
        "state_name":"Ohio",
        "lat":41.6963,
        "lng":-81.2372,
        "population":232216
    },
    {
        "county":"Barnstable",
        "county_full":"Barnstable County",
        "county_fips":25001,
        "state_name":"Massachusetts",
        "lat":41.7244,
        "lng":-70.2903,
        "population":231668
    },
    {
        "county":"Whatcom",
        "county_full":"Whatcom County",
        "county_fips":53073,
        "state_name":"Washington",
        "lat":48.8259,
        "lng":-121.7199,
        "population":230503
    },
    {
        "county":"Shelby",
        "county_full":"Shelby County",
        "county_fips":1117,
        "state_name":"Alabama",
        "lat":33.2643,
        "lng":-86.6607,
        "population":230211
    },
    {
        "county":"Caddo",
        "county_full":"Caddo Parish",
        "county_fips":22017,
        "state_name":"Louisiana",
        "lat":32.5806,
        "lng":-93.8823,
        "population":230004
    },
    {
        "county":"Linn",
        "county_full":"Linn County",
        "county_fips":19113,
        "state_name":"Iowa",
        "lat":42.079,
        "lng":-91.599,
        "population":230004
    },
    {
        "county":"Jefferson",
        "county_full":"Jefferson County",
        "county_fips":29099,
        "state_name":"Missouri",
        "lat":38.261,
        "lng":-90.5377,
        "population":229458
    },
    {
        "county":"Richmond",
        "county_full":"Richmond City",
        "county_fips":51760,
        "state_name":"Virginia",
        "lat":37.5294,
        "lng":-77.4756,
        "population":229359
    },
    {
        "county":"Oneida",
        "county_full":"Oneida County",
        "county_fips":36065,
        "state_name":"New York",
        "lat":43.2418,
        "lng":-75.4358,
        "population":229124
    },
    {
        "county":"Clay",
        "county_full":"Clay County",
        "county_fips":12019,
        "state_name":"Florida",
        "lat":29.9831,
        "lng":-81.8579,
        "population":227584
    },
    {
        "county":"Delaware",
        "county_full":"Delaware County",
        "county_fips":39041,
        "state_name":"Ohio",
        "lat":40.2784,
        "lng":-83.0049,
        "population":226834
    },
    {
        "county":"Montgomery",
        "county_full":"Montgomery County",
        "county_fips":1101,
        "state_name":"Alabama",
        "lat":32.2203,
        "lng":-86.2076,
        "population":226718
    },
    {
        "county":"Mahoning",
        "county_full":"Mahoning County",
        "county_fips":39099,
        "state_name":"Ohio",
        "lat":41.0146,
        "lng":-80.7763,
        "population":226491
    },
    {
        "county":"Do\u00f1a Ana",
        "county_full":"Do\u00f1a Ana County",
        "county_fips":35013,
        "state_name":"New Mexico",
        "lat":32.3526,
        "lng":-106.8328,
        "population":224266
    },
    {
        "county":"Jackson",
        "county_full":"Jackson County",
        "county_fips":41029,
        "state_name":"Oregon",
        "lat":42.4322,
        "lng":-122.7285,
        "population":222645
    },
    {
        "county":"Yolo",
        "county_full":"Yolo County",
        "county_fips":6113,
        "state_name":"California",
        "lat":38.6866,
        "lng":-121.9011,
        "population":220564
    },
    {
        "county":"Mohave",
        "county_full":"Mohave County",
        "county_fips":4015,
        "state_name":"Arizona",
        "lat":35.7041,
        "lng":-113.7579,
        "population":220517
    },
    {
        "county":"Hinds",
        "county_full":"Hinds County",
        "county_fips":28049,
        "state_name":"Mississippi",
        "lat":32.2667,
        "lng":-90.4429,
        "population":218533
    },
    {
        "county":"York",
        "county_full":"York County",
        "county_fips":23031,
        "state_name":"Maine",
        "lat":43.4782,
        "lng":-70.7144,
        "population":216731
    },
    {
        "county":"Okaloosa",
        "county_full":"Okaloosa County",
        "county_fips":12091,
        "state_name":"Florida",
        "lat":30.6913,
        "lng":-86.5917,
        "population":216599
    },
    {
        "county":"Lackawanna",
        "county_full":"Lackawanna County",
        "county_fips":42069,
        "state_name":"Pennsylvania",
        "lat":41.4367,
        "lng":-75.6092,
        "population":216146
    },
    {
        "county":"Ellis",
        "county_full":"Ellis County",
        "county_fips":48139,
        "state_name":"Texas",
        "lat":32.3484,
        "lng":-96.7947,
        "population":213160
    },
    {
        "county":"Benton",
        "county_full":"Benton County",
        "county_fips":53005,
        "state_name":"Washington",
        "lat":46.2398,
        "lng":-119.5112,
        "population":212905
    },
    {
        "county":"Hall",
        "county_full":"Hall County",
        "county_fips":13139,
        "state_name":"Georgia",
        "lat":34.3171,
        "lng":-83.8196,
        "population":212705
    },
    {
        "county":"Yuma",
        "county_full":"Yuma County",
        "county_fips":4027,
        "state_name":"Arizona",
        "lat":32.7695,
        "lng":-113.9056,
        "population":211741
    },
    {
        "county":"Clermont",
        "county_full":"Clermont County",
        "county_fips":39025,
        "state_name":"Ohio",
        "lat":39.0476,
        "lng":-84.1517,
        "population":211181
    },
    {
        "county":"Harrison",
        "county_full":"Harrison County",
        "county_fips":28047,
        "state_name":"Mississippi",
        "lat":30.5122,
        "lng":-89.116,
        "population":210891
    },
    {
        "county":"Niagara",
        "county_full":"Niagara County",
        "county_fips":36063,
        "state_name":"New York",
        "lat":43.2001,
        "lng":-78.7452,
        "population":210721
    },
    {
        "county":"Anderson",
        "county_full":"Anderson County",
        "county_fips":45007,
        "state_name":"South Carolina",
        "lat":34.5193,
        "lng":-82.6378,
        "population":210478
    },
    {
        "county":"Washington",
        "county_full":"Washington County",
        "county_fips":42125,
        "state_name":"Pennsylvania",
        "lat":40.1894,
        "lng":-80.2483,
        "population":210042
    },
    {
        "county":"Champaign",
        "county_full":"Champaign County",
        "county_fips":17019,
        "state_name":"Illinois",
        "lat":40.1401,
        "lng":-88.1992,
        "population":208741
    },
    {
        "county":"Butte",
        "county_full":"Butte County",
        "county_fips":6007,
        "state_name":"California",
        "lat":39.6669,
        "lng":-121.6007,
        "population":207929
    },
    {
        "county":"Onslow",
        "county_full":"Onslow County",
        "county_fips":37133,
        "state_name":"North Carolina",
        "lat":34.7322,
        "lng":-77.4322,
        "population":207906
    },
    {
        "county":"Elkhart",
        "county_full":"Elkhart County",
        "county_fips":18039,
        "state_name":"Indiana",
        "lat":41.5974,
        "lng":-85.8587,
        "population":207132
    },
    {
        "county":"Calcasieu",
        "county_full":"Calcasieu Parish",
        "county_fips":22019,
        "state_name":"Louisiana",
        "lat":30.2293,
        "lng":-93.3581,
        "population":207088
    },
    {
        "county":"Hernando",
        "county_full":"Hernando County",
        "county_fips":12053,
        "state_name":"Florida",
        "lat":28.5537,
        "lng":-82.424,
        "population":207018
    },
    {
        "county":"Deschutes",
        "county_full":"Deschutes County",
        "county_fips":41017,
        "state_name":"Oregon",
        "lat":43.915,
        "lng":-121.2281,
        "population":206334
    },
    {
        "county":"Richmond",
        "county_full":"Richmond County",
        "county_fips":13245,
        "state_name":"Georgia",
        "lat":33.3596,
        "lng":-82.0736,
        "population":206069
    },
    {
        "county":"Hawaii",
        "county_full":"Hawaii County",
        "county_fips":15001,
        "state_name":"Hawaii",
        "lat":19.5984,
        "lng":-155.5183,
        "population":205769
    },
    {
        "county":"Sumner",
        "county_full":"Sumner County",
        "county_fips":47165,
        "state_name":"Tennessee",
        "lat":36.469,
        "lng":-86.4606,
        "population":204424
    },
    {
        "county":"Muscogee",
        "county_full":"Muscogee County",
        "county_fips":13215,
        "state_name":"Georgia",
        "lat":32.51,
        "lng":-84.8771,
        "population":203711
    },
    {
        "county":"Minnehaha",
        "county_full":"Minnehaha County",
        "county_fips":46099,
        "state_name":"South Dakota",
        "lat":43.6742,
        "lng":-96.7915,
        "population":203289
    },
    {
        "county":"Charlotte",
        "county_full":"Charlotte County",
        "county_fips":12015,
        "state_name":"Florida",
        "lat":26.9058,
        "lng":-81.9114,
        "population":201064
    },
    {
        "county":"Trumbull",
        "county_full":"Trumbull County",
        "county_fips":39155,
        "state_name":"Ohio",
        "lat":41.317,
        "lng":-80.7613,
        "population":200929
    },
    {
        "county":"St. Louis",
        "county_full":"St. Louis County",
        "county_fips":27137,
        "state_name":"Minnesota",
        "lat":47.6032,
        "lng":-92.4707,
        "population":200123
    },
    {
        "county":"Santa Rosa",
        "county_full":"Santa Rosa County",
        "county_fips":12113,
        "state_name":"Florida",
        "lat":30.7004,
        "lng":-87.0219,
        "population":198472
    },
    {
        "county":"Racine",
        "county_full":"Racine County",
        "county_fips":55101,
        "state_name":"Wisconsin",
        "lat":42.7475,
        "lng":-88.0613,
        "population":197532
    },
    {
        "county":"Sarpy",
        "county_full":"Sarpy County",
        "county_fips":31153,
        "state_name":"Nebraska",
        "lat":41.1129,
        "lng":-96.112,
        "population":197389
    },
    {
        "county":"Broome",
        "county_full":"Broome County",
        "county_fips":36007,
        "state_name":"New York",
        "lat":42.1602,
        "lng":-75.8196,
        "population":197378
    },
    {
        "county":"Butler",
        "county_full":"Butler County",
        "county_fips":42019,
        "state_name":"Pennsylvania",
        "lat":40.912,
        "lng":-79.9133,
        "population":197254
    },
    {
        "county":"Iredell",
        "county_full":"Iredell County",
        "county_fips":37097,
        "state_name":"North Carolina",
        "lat":35.8071,
        "lng":-80.8734,
        "population":196544
    },
    {
        "county":"Washington",
        "county_full":"Washington County",
        "county_fips":49053,
        "state_name":"Utah",
        "lat":37.2804,
        "lng":-113.5047,
        "population":196431
    },
    {
        "county":"Livingston",
        "county_full":"Livingston County",
        "county_fips":26093,
        "state_name":"Michigan",
        "lat":42.6029,
        "lng":-83.9115,
        "population":195833
    },
    {
        "county":"Johnson",
        "county_full":"Johnson County",
        "county_fips":48251,
        "state_name":"Texas",
        "lat":32.379,
        "lng":-97.3666,
        "population":195597
    },
    {
        "county":"Beaufort",
        "county_full":"Beaufort County",
        "county_fips":45013,
        "state_name":"South Carolina",
        "lat":32.3857,
        "lng":-80.7306,
        "population":195289
    },
    {
        "county":"Sangamon",
        "county_full":"Sangamon County",
        "county_fips":17167,
        "state_name":"Illinois",
        "lat":39.7582,
        "lng":-89.6589,
        "population":194947
    },
    {
        "county":"Cass",
        "county_full":"Cass County",
        "county_fips":38017,
        "state_name":"North Dakota",
        "lat":46.933,
        "lng":-97.248,
        "population":193400
    },
    {
        "county":"Outagamie",
        "county_full":"Outagamie County",
        "county_fips":55087,
        "state_name":"Wisconsin",
        "lat":44.4161,
        "lng":-88.4649,
        "population":192826
    },
    {
        "county":"El Dorado",
        "county_full":"El Dorado County",
        "county_fips":6017,
        "state_name":"California",
        "lat":38.7787,
        "lng":-120.5247,
        "population":192662
    },
    {
        "county":"DeSoto",
        "county_full":"DeSoto County",
        "county_fips":28033,
        "state_name":"Mississippi",
        "lat":34.8753,
        "lng":-89.9912,
        "population":191301
    },
    {
        "county":"Tippecanoe",
        "county_full":"Tippecanoe County",
        "county_fips":18157,
        "state_name":"Indiana",
        "lat":40.3886,
        "lng":-86.8941,
        "population":189071
    },
    {
        "county":"Saginaw",
        "county_full":"Saginaw County",
        "county_fips":26145,
        "state_name":"Michigan",
        "lat":43.335,
        "lng":-84.0532,
        "population":188665
    },
    {
        "county":"Boone",
        "county_full":"Boone County",
        "county_fips":29019,
        "state_name":"Missouri",
        "lat":38.9906,
        "lng":-92.3097,
        "population":188043
    },
    {
        "county":"Kent",
        "county_full":"Kent County",
        "county_fips":10001,
        "state_name":"Delaware",
        "lat":39.086,
        "lng":-75.5686,
        "population":187604
    },
    {
        "county":"Bay",
        "county_full":"Bay County",
        "county_fips":12005,
        "state_name":"Florida",
        "lat":30.2652,
        "lng":-85.6203,
        "population":186393
    },
    {
        "county":"Newport News",
        "county_full":"Newport News City",
        "county_fips":51700,
        "state_name":"Virginia",
        "lat":37.105,
        "lng":-76.5181,
        "population":184216
    },
    {
        "county":"Comal",
        "county_full":"Comal County",
        "county_fips":48091,
        "state_name":"Texas",
        "lat":29.8082,
        "lng":-98.2783,
        "population":183826
    },
    {
        "county":"Medina",
        "county_full":"Medina County",
        "county_fips":39103,
        "state_name":"Ohio",
        "lat":41.1176,
        "lng":-81.8997,
        "population":183660
    },
    {
        "county":"Guadalupe",
        "county_full":"Guadalupe County",
        "county_fips":48187,
        "state_name":"Texas",
        "lat":29.5831,
        "lng":-97.9486,
        "population":183642
    },
    {
        "county":"Hendricks",
        "county_full":"Hendricks County",
        "county_fips":18063,
        "state_name":"Indiana",
        "lat":39.7695,
        "lng":-86.51,
        "population":183344
    },
    {
        "county":"Ulster",
        "county_full":"Ulster County",
        "county_fips":36111,
        "state_name":"New York",
        "lat":41.8881,
        "lng":-74.2586,
        "population":182601
    },
    {
        "county":"Kootenai",
        "county_full":"Kootenai County",
        "county_fips":16055,
        "state_name":"Idaho",
        "lat":47.6744,
        "lng":-116.7018,
        "population":181996
    },
    {
        "county":"Licking",
        "county_full":"Licking County",
        "county_fips":39089,
        "state_name":"Ohio",
        "lat":40.0916,
        "lng":-82.4831,
        "population":181837
    },
    {
        "county":"Shasta",
        "county_full":"Shasta County",
        "county_fips":6089,
        "state_name":"California",
        "lat":40.7637,
        "lng":-122.0405,
        "population":181436
    },
    {
        "county":"Lee",
        "county_full":"Lee County",
        "county_fips":1081,
        "state_name":"Alabama",
        "lat":32.6011,
        "lng":-85.3555,
        "population":181134
    },
    {
        "county":"Imperial",
        "county_full":"Imperial County",
        "county_fips":6025,
        "state_name":"California",
        "lat":33.0395,
        "lng":-115.3653,
        "population":180202
    },
    {
        "county":"Vanderburgh",
        "county_full":"Vanderburgh County",
        "county_fips":18163,
        "state_name":"Indiana",
        "lat":38.0249,
        "lng":-87.5859,
        "population":180117
    },
    {
        "county":"Peoria",
        "county_full":"Peoria County",
        "county_fips":17143,
        "state_name":"Illinois",
        "lat":40.788,
        "lng":-89.76,
        "population":179645
    },
    {
        "county":"Paulding",
        "county_full":"Paulding County",
        "county_fips":13223,
        "state_name":"Georgia",
        "lat":33.9205,
        "lng":-84.8673,
        "population":178909
    },
    {
        "county":"Shawnee",
        "county_full":"Shawnee County",
        "county_fips":20177,
        "state_name":"Kansas",
        "lat":39.0415,
        "lng":-95.7565,
        "population":178025
    },
    {
        "county":"Pitt",
        "county_full":"Pitt County",
        "county_fips":37147,
        "state_name":"North Carolina",
        "lat":35.5933,
        "lng":-77.3745,
        "population":177193
    },
    {
        "county":"Alamance",
        "county_full":"Alamance County",
        "county_fips":37001,
        "state_name":"North Carolina",
        "lat":36.0437,
        "lng":-79.3995,
        "population":176893
    },
    {
        "county":"Kanawha",
        "county_full":"Kanawha County",
        "county_fips":54039,
        "state_name":"West Virginia",
        "lat":38.3365,
        "lng":-81.5281,
        "population":176537
    },
    {
        "county":"Muskegon",
        "county_full":"Muskegon County",
        "county_fips":26121,
        "state_name":"Michigan",
        "lat":43.2912,
        "lng":-86.152,
        "population":175961
    },
    {
        "county":"Lower Connecticut River Valley",
        "county_full":"Lower Connecticut River Valley Planning Region",
        "county_fips":9130,
        "state_name":"Connecticut",
        "lat":41.45,
        "lng":-72.5073,
        "population":175822
    },
    {
        "county":"Carroll",
        "county_full":"Carroll County",
        "county_fips":24013,
        "state_name":"Maryland",
        "lat":39.5629,
        "lng":-77.0225,
        "population":175321
    },
    {
        "county":"Porter",
        "county_full":"Porter County",
        "county_fips":18127,
        "state_name":"Indiana",
        "lat":41.4603,
        "lng":-87.0672,
        "population":174818
    },
    {
        "county":"Midland",
        "county_full":"Midland County",
        "county_fips":48329,
        "state_name":"Texas",
        "lat":31.8691,
        "lng":-102.0316,
        "population":174801
    },
    {
        "county":"Scott",
        "county_full":"Scott County",
        "county_fips":19163,
        "state_name":"Iowa",
        "lat":41.6371,
        "lng":-90.6232,
        "population":174608
    },
    {
        "county":"Aiken",
        "county_full":"Aiken County",
        "county_fips":45003,
        "state_name":"South Carolina",
        "lat":33.5442,
        "lng":-81.6347,
        "population":174160
    },
    {
        "county":"Davidson",
        "county_full":"Davidson County",
        "county_fips":37057,
        "state_name":"North Carolina",
        "lat":35.7933,
        "lng":-80.2127,
        "population":172954
    },
    {
        "county":"Kaufman",
        "county_full":"Kaufman County",
        "county_fips":48257,
        "state_name":"Texas",
        "lat":32.5993,
        "lng":-96.2878,
        "population":172604
    },
    {
        "county":"Winnebago",
        "county_full":"Winnebago County",
        "county_fips":55139,
        "state_name":"Wisconsin",
        "lat":44.0689,
        "lng":-88.6446,
        "population":171769
    },
    {
        "county":"McLean",
        "county_full":"McLean County",
        "county_fips":17113,
        "state_name":"Illinois",
        "lat":40.4909,
        "lng":-88.8473,
        "population":171556
    },
    {
        "county":"Kent",
        "county_full":"Kent County",
        "county_fips":44003,
        "state_name":"Rhode Island",
        "lat":41.6722,
        "lng":-71.5932,
        "population":171456
    },
    {
        "county":"Kenton",
        "county_full":"Kenton County",
        "county_fips":21117,
        "state_name":"Kentucky",
        "lat":38.9334,
        "lng":-84.5333,
        "population":171288
    },
    {
        "county":"Charles",
        "county_full":"Charles County",
        "county_fips":24017,
        "state_name":"Maryland",
        "lat":38.5073,
        "lng":-76.9922,
        "population":170527
    },
    {
        "county":"Chittenden",
        "county_full":"Chittenden County",
        "county_fips":50007,
        "state_name":"Vermont",
        "lat":44.4611,
        "lng":-73.0813,
        "population":169758
    },
    {
        "county":"Greene",
        "county_full":"Greene County",
        "county_fips":39057,
        "state_name":"Ohio",
        "lat":39.6915,
        "lng":-83.8899,
        "population":169688
    },
    {
        "county":"Houston",
        "county_full":"Houston County",
        "county_fips":13153,
        "state_name":"Georgia",
        "lat":32.459,
        "lng":-83.6662,
        "population":169649
    },
    {
        "county":"Pueblo",
        "county_full":"Pueblo County",
        "county_fips":8101,
        "state_name":"Colorado",
        "lat":38.1735,
        "lng":-104.5127,
        "population":169356
    },
    {
        "county":"Canadian",
        "county_full":"Canadian County",
        "county_fips":40017,
        "state_name":"Oklahoma",
        "lat":35.5424,
        "lng":-97.9824,
        "population":168985
    },
    {
        "county":"Yellowstone",
        "county_full":"Yellowstone County",
        "county_fips":30111,
        "state_name":"Montana",
        "lat":45.9373,
        "lng":-108.2744,
        "population":168957
    },
    {
        "county":"Kenosha",
        "county_full":"Kenosha County",
        "county_fips":55059,
        "state_name":"Wisconsin",
        "lat":42.5769,
        "lng":-88.0424,
        "population":168438
    },
    {
        "county":"Wyandotte",
        "county_full":"Wyandotte County",
        "county_fips":20209,
        "state_name":"Kansas",
        "lat":39.1146,
        "lng":-94.7646,
        "population":167654
    },
    {
        "county":"Monroe",
        "county_full":"Monroe County",
        "county_fips":42089,
        "state_name":"Pennsylvania",
        "lat":41.0581,
        "lng":-75.3395,
        "population":167515
    },
    {
        "county":"Dorchester",
        "county_full":"Dorchester County",
        "county_fips":45035,
        "state_name":"South Carolina",
        "lat":33.0794,
        "lng":-80.4068,
        "population":167201
    },
    {
        "county":"Indian River",
        "county_full":"Indian River County",
        "county_fips":12061,
        "state_name":"Florida",
        "lat":27.6943,
        "lng":-80.6064,
        "population":166936
    },
    {
        "county":"Beaver",
        "county_full":"Beaver County",
        "county_fips":42007,
        "state_name":"Pennsylvania",
        "lat":40.6823,
        "lng":-80.3493,
        "population":166324
    },
    {
        "county":"Johnson",
        "county_full":"Johnson County",
        "county_fips":18081,
        "state_name":"Indiana",
        "lat":39.49,
        "lng":-86.1016,
        "population":166315
    },
    {
        "county":"Parker",
        "county_full":"Parker County",
        "county_fips":48367,
        "state_name":"Texas",
        "lat":32.7776,
        "lng":-97.8051,
        "population":165168
    },
    {
        "county":"Ector",
        "county_full":"Ector County",
        "county_fips":48135,
        "state_name":"Texas",
        "lat":31.8692,
        "lng":-102.5429,
        "population":164654
    },
    {
        "county":"Maui",
        "county_full":"Maui County",
        "county_fips":15009,
        "state_name":"Hawaii",
        "lat":20.8596,
        "lng":-156.565,
        "population":164522
    },
    {
        "county":"Olmsted",
        "county_full":"Olmsted County",
        "county_fips":27109,
        "state_name":"Minnesota",
        "lat":44.0038,
        "lng":-92.4018,
        "population":164498
    },
    {
        "county":"Rock",
        "county_full":"Rock County",
        "county_fips":55105,
        "state_name":"Wisconsin",
        "lat":42.6712,
        "lng":-89.0716,
        "population":164350
    },
    {
        "county":"Catawba",
        "county_full":"Catawba County",
        "county_fips":37035,
        "state_name":"North Carolina",
        "lat":35.662,
        "lng":-81.2151,
        "population":163573
    },
    {
        "county":"Stafford",
        "county_full":"Stafford County",
        "county_fips":51179,
        "state_name":"Virginia",
        "lat":38.4207,
        "lng":-77.458,
        "population":163466
    },
    {
        "county":"Fairfield",
        "county_full":"Fairfield County",
        "county_fips":39045,
        "state_name":"Ohio",
        "lat":39.7516,
        "lng":-82.6306,
        "population":163453
    },
    {
        "county":"Citrus",
        "county_full":"Citrus County",
        "county_fips":12017,
        "state_name":"Florida",
        "lat":28.8489,
        "lng":-82.4794,
        "population":162472
    },
    {
        "county":"Columbia",
        "county_full":"Columbia County",
        "county_fips":13073,
        "state_name":"Georgia",
        "lat":33.5441,
        "lng":-82.2641,
        "population":162434
    },
    {
        "county":"Martin",
        "county_full":"Martin County",
        "county_fips":12085,
        "state_name":"Florida",
        "lat":27.0775,
        "lng":-80.4315,
        "population":162176
    },
    {
        "county":"Hampshire",
        "county_full":"Hampshire County",
        "county_fips":25015,
        "state_name":"Massachusetts",
        "lat":42.3402,
        "lng":-72.6638,
        "population":162028
    },
    {
        "county":"Portage",
        "county_full":"Portage County",
        "county_fips":39133,
        "state_name":"Ohio",
        "lat":41.1677,
        "lng":-81.1974,
        "population":161956
    },
    {
        "county":"Madera",
        "county_full":"Madera County",
        "county_fips":6039,
        "state_name":"California",
        "lat":37.218,
        "lng":-119.7627,
        "population":160940
    },
    {
        "county":"Stearns",
        "county_full":"Stearns County",
        "county_fips":27145,
        "state_name":"Minnesota",
        "lat":45.5521,
        "lng":-94.6131,
        "population":160865
    },
    {
        "county":"Sullivan",
        "county_full":"Sullivan County",
        "county_fips":47163,
        "state_name":"Tennessee",
        "lat":36.5129,
        "lng":-82.3042,
        "population":160624
    },
    {
        "county":"Schenectady",
        "county_full":"Schenectady County",
        "county_fips":36093,
        "state_name":"New York",
        "lat":42.8181,
        "lng":-74.0586,
        "population":160369
    },
    {
        "county":"Rensselaer",
        "county_full":"Rensselaer County",
        "county_fips":36083,
        "state_name":"New York",
        "lat":42.7111,
        "lng":-73.5097,
        "population":160332
    },
    {
        "county":"St. Clair",
        "county_full":"St. Clair County",
        "county_fips":26147,
        "state_name":"Michigan",
        "lat":42.9341,
        "lng":-82.6806,
        "population":160221
    },
    {
        "county":"Jackson",
        "county_full":"Jackson County",
        "county_fips":26075,
        "state_name":"Michigan",
        "lat":42.2485,
        "lng":-84.4234,
        "population":160060
    },
    {
        "county":"Rankin",
        "county_full":"Rankin County",
        "county_fips":28121,
        "state_name":"Mississippi",
        "lat":32.2641,
        "lng":-89.9458,
        "population":158854
    },
    {
        "county":"Wilson",
        "county_full":"Wilson County",
        "county_fips":47189,
        "state_name":"Tennessee",
        "lat":36.1547,
        "lng":-86.2973,
        "population":158805
    },
    {
        "county":"Mesa",
        "county_full":"Mesa County",
        "county_fips":8077,
        "state_name":"Colorado",
        "lat":39.0183,
        "lng":-108.4664,
        "population":158601
    },
    {
        "county":"Centre",
        "county_full":"Centre County",
        "county_fips":42027,
        "state_name":"Pennsylvania",
        "lat":40.9189,
        "lng":-77.8199,
        "population":158576
    },
    {
        "county":"Ouachita",
        "county_full":"Ouachita Parish",
        "county_fips":22073,
        "state_name":"Louisiana",
        "lat":32.4784,
        "lng":-92.1549,
        "population":158480
    },
    {
        "county":"Franklin",
        "county_full":"Franklin County",
        "county_fips":42055,
        "state_name":"Pennsylvania",
        "lat":39.9274,
        "lng":-77.7213,
        "population":157379
    },
    {
        "county":"Alexandria",
        "county_full":"Alexandria City",
        "county_fips":51510,
        "state_name":"Virginia",
        "lat":38.8185,
        "lng":-77.0861,
        "population":156976
    },
    {
        "county":"Johnson",
        "county_full":"Johnson County",
        "county_fips":19103,
        "state_name":"Iowa",
        "lat":41.6715,
        "lng":-91.5881,
        "population":156639
    },
    {
        "county":"Bibb",
        "county_full":"Bibb County",
        "county_fips":13021,
        "state_name":"Georgia",
        "lat":32.8065,
        "lng":-83.6974,
        "population":156578
    },
    {
        "county":"Santa Fe",
        "county_full":"Santa Fe County",
        "county_fips":35049,
        "state_name":"New Mexico",
        "lat":35.5069,
        "lng":-105.9763,
        "population":156105
    },
    {
        "county":"Merrimack",
        "county_full":"Merrimack County",
        "county_fips":33013,
        "state_name":"New Hampshire",
        "lat":43.2975,
        "lng":-71.6802,
        "population":155967
    },
    {
        "county":"Washington",
        "county_full":"Washington County",
        "county_fips":24043,
        "state_name":"Maryland",
        "lat":39.6036,
        "lng":-77.814,
        "population":155709
    },
    {
        "county":"Monroe",
        "county_full":"Monroe County",
        "county_fips":26115,
        "state_name":"Michigan",
        "lat":41.9291,
        "lng":-83.5394,
        "population":155505
    },
    {
        "county":"Penobscot",
        "county_full":"Penobscot County",
        "county_fips":23019,
        "state_name":"Maine",
        "lat":45.4006,
        "lng":-68.6495,
        "population":154710
    },
    {
        "county":"Scott",
        "county_full":"Scott County",
        "county_fips":27139,
        "state_name":"Minnesota",
        "lat":44.6485,
        "lng":-93.5359,
        "population":154557
    },
    {
        "county":"Sandoval",
        "county_full":"Sandoval County",
        "county_fips":35043,
        "state_name":"New Mexico",
        "lat":35.6886,
        "lng":-106.8659,
        "population":153604
    },
    {
        "county":"Cumberland",
        "county_full":"Cumberland County",
        "county_fips":34011,
        "state_name":"New Jersey",
        "lat":39.3739,
        "lng":-75.1107,
        "population":153305
    },
    {
        "county":"Kings",
        "county_full":"Kings County",
        "county_fips":6031,
        "state_name":"California",
        "lat":36.0752,
        "lng":-119.8155,
        "population":153298
    },
    {
        "county":"Berrien",
        "county_full":"Berrien County",
        "county_fips":26021,
        "state_name":"Michigan",
        "lat":41.9547,
        "lng":-86.4123,
        "population":153288
    },
    {
        "county":"Coweta",
        "county_full":"Coweta County",
        "county_fips":13077,
        "state_name":"Georgia",
        "lat":33.3533,
        "lng":-84.7634,
        "population":152852
    },
    {
        "county":"Brunswick",
        "county_full":"Brunswick County",
        "county_fips":37019,
        "state_name":"North Carolina",
        "lat":34.0715,
        "lng":-78.2383,
        "population":152568
    },
    {
        "county":"Rowan",
        "county_full":"Rowan County",
        "county_fips":37159,
        "state_name":"North Carolina",
        "lat":35.6394,
        "lng":-80.5247,
        "population":149875
    },